[{"lat":"29.516206","long":"-98.79341999999997","market":[10],"title":"San Antonio- Culebra Road LLC","acres":"260.93","parcel":"987082,","county":"Bexar","street":"Culebra Road","broker":"NAI Southern Real Estate"},{"lat":"30.7315339","long":"-97.8198198","market":[9],"title":"Austin- Ronald Reagan Blvd LLC","acres":"523.66","parcel":"R01003","county":"Williamson","street":"Ronald Reagan Blvd & Co. Road 248","broker":"NAI Southern Real Estate"},{"lat":"35.936884","long":"-87.06503199999997","market":[8],"title":"","acres":"345.07","parcel":"067 022.00","county":"Williamson","street":"Old Highway 96 & Inman Branch Road","broker":"NAI Southern Real Estate"},{"lat":"35.960767","long":"-87.064796","market":[8],"title":"Nashville- Williamson County LLC","acres":"911.91","parcel":"067 02404","county":"Williamson","street":"Old Highway 96 & Inman Branch Road","broker":"NAI Southern Real Estate"},{"lat":"36.188929","long":"-86.18041749999998","market":[8],"title":"Nashville I-40 East LLC","acres":"1395.21","parcel":"0890040000011089","county":"Wilson","street":"I-40 East","broker":"NAI Southern Real Estate"},{"lat":"35.9699775","long":"-86.63576890000002","market":[8],"title":"Nashville- McFarlin Road LLC","acres":"372.89","parcel":"057 001.01","county":"Williamson","street":"McFarlin Road & Fly Road","broker":"NAI Southern Real Estate"},{"lat":"35.7439076","long":"-86.87026029999998","market":[8],"title":"Nashville I-65 LLC","acres":"725.17","parcel":"17002700","county":"Williamson","street":"I-65","broker":"NAI Southern Real Estate"},{"lat":"35.850432","long":"-86.57496500000002","market":[8],"title":"Nashville-Highway 96 LLC","acres":"118.55","parcel":"095 034.00","county":"Rutherford","street":"Highway 96 & Almaville Road","broker":"NAI Southern Real Estate"},{"lat":"35.8534061","long":"-86.88205089999997","market":[8],"title":"Nashville- Franklin LLC","acres":"301.8","parcel":"118 011.00","county":"Williamson","street":"Goose Creek Bypass","broker":"NAI Southern Real Estate"},{"lat":"33.9067405","long":"-78.64324859999999","market":[7],"title":"Little River- Highway 57 and Highway 111 LLC","acres":"399.01","parcel":"1180001001","county":"Horry","street":"State Highway 57 and Highway 111","broker":"NAI Southern Real Estate"},{"lat":"33.9076335","long":"-78.61862889999998","market":[7],"title":"Little River- Highway 50 LLC","acres":"694.76","parcel":"1180001007","county":"Horry","street":"State Highway 50","broker":"NAI Southern Real Estate"},{"lat":"35.043858","long":"-81.10840100000001","market":[4],"title":"Charlotte- Allison Creek LLC","acres":"328.7","parcel":"4880000009","county":"York","street":"Highway 49","broker":"NAI Southern Real Estate"},{"lat":"33.1281327","long":"-80.1729449","market":[6],"title":"Charleston- Jedburg Road LLC","acres":"226.7","parcel":"1780003001","county":"Berkeley","street":"Jedburg Road","broker":"NAI Southern Real Estate"},{"lat":"33.147927","long":"-80.1415599","market":[6],"title":"Charleston- Berkeley County LLC","acres":"309.63","parcel":"1600002108","county":"Berkeley","street":"Cooper Store Road","broker":"NAI Southern Real Estate"},{"lat":"35.9595411","long":"-78.78040659999999","market":[5],"title":"Raleigh- Durham- RTP LLC","acres":"219.42","parcel":"193368","county":"Durham","street":"Olive Branch Road","broker":"NAI Southern Real Estate"},{"lat":"35.771411","long":"-79.21047699999997","market":[5],"title":"Parks at Meadowview Lot, LLC","acres":"256.35","parcel":"5983","county":"Chatham","street":"The Parks Drive","broker":"NAI Southern Real Estate"},{"lat":"35.777083","long":"-79.23096699999996","market":[5],"title":"Parks at Meadowview Land, LLC","acres":"485","parcel":"5912","county":"Chatham","street":"Old Graham Road","broker":"NAI Southern Real Estate"},{"lat":"35.83763700000001","long":"-78.48470700000001","market":[5],"title":"Raleigh- River Town- Fuquay LLC","acres":"59.13","parcel":"0665746312","county":"Wake","street":"Purfoy Road","broker":"NAI Southern Real Estate"},{"lat":"35.547727","long":"-78.76149199999998","market":[5],"title":"Raleigh- Highway 55 LLC","acres":"148.66","parcel":"0675 14 1029 000","county":"Wake","street":"NC Highway 55","broker":"NAI Southern Real Estate"},{"lat":"34.9114036","long":"-80.69205669999997","market":[4],"title":"Old Waxhaw- Monroe Road JV","acres":"944.77","parcel":"05033188","county":"Union","street":"Old Waxhaw Monroe Road","broker":"NAI Southern Real Estate"},{"lat":"34.923225","long":"-80.71583399999997","market":[4],"title":"Highway 75 LLC","acres":"311.26","parcel":"5060003","county":"Union","street":"Highway 75","broker":"NAI Southern Real Estate"},{"lat":"35.19245300000001","long":"-81.10586","market":[4],"title":"Union New Hope Road LLC","acres":"219.26","parcel":"205616","county":"Cabarrus","street":"Union New Hope Road","broker":"NAI Southern Real Estate"},{"lat":"35.342507","long":"-80.69116199999996","market":[4],"title":"Speedway- Hudspeth LLC","acres":"39.99","parcel":"05109106","county":"Cabarrus","street":"Hudspeth Road","broker":"NAI Southern Real Estate"},{"lat":"35.3236887","long":"-80.47174430000001","market":[4],"title":"Mount Pleasant- Highway 200 LLC","acres":"652.1","parcel":"557949580","county":"Cabarrus","street":"Mount Pleasant Road & Highway 200","broker":"NAI Southern Real Estate"},{"lat":"35.36072","long":"-80.421446","market":[4],"title":"Mount Pleasant- Monroe LLC","acres":"231.53","parcel":"5578493740","county":"Cabarrus","street":"Hahn Scott Road","broker":"NAI Southern Real Estate"},{"lat":"35.3675501","long":"-80.42237920000002","market":[4],"title":"Mount Plesant- Long Run Farm Road LLC","acres":"35.367458  -80.422908","parcel":"5579425599","county":"Cabarrus","street":"Long Run Farm Road & Hahn Scott Road","broker":"NAI Southern Real Estate"},{"lat":"35.383798","long":"-80.41812399999998","market":[4],"title":"Mount Pleasant-Highway 73 LLC","acres":"342.31","parcel":"5579425599","county":"Cabarrus","street":"Highway 73 & Bowman Barrier Road","broker":"NAI Southern Real Estate"},{"lat":"34.9356264","long":"-80.47698960000002","market":[4],"title":"Monroe Bypass- Highway 601 LLC","acres":"843.85","parcel":"09066001","county":"Union","street":"Macedonia Church Road","broker":"NAI Southern Real Estate"},{"lat":"35.0299105","long":"-80.58793969999999","market":[4],"title":"Monroe-Independence LLC","acres":"51.5","parcel":"09298068A","county":"Union","street":"Us Highway 74 & Secrest Price Road","broker":"NAI Southern Real Estate"},{"lat":"35.1701178","long":"-80.5668258","market":[4],"title":"Highway 218-Mill Grove Road LLC","acres":"303.71","parcel":"8249001","county":"Union","street":"Highway 218 & Mill Grove Road","broker":"NAI Southern Real Estate"},{"lat":"35.265725","long":"-80.61006700000002","market":[4],"title":"Lower Rocky River Road LLC","acres":"98.83","parcel":"5525076170","county":"Cabarrus","street":"Lower Rocky River Road","broker":"NAI Southern Real Estate"},{"lat":"35.300206","long":"-80.44832600000001","market":[4],"title":"Locust- Highway 200 LLC","acres":"379.55","parcel":"5566941933","county":"Cabarrus","street":"NC Highway 200","broker":"NC Highway 200"},{"lat":"35.5286848","long":"-81.06182160000003","market":[4],"title":"Beth Haven Church Road- NC 16 Bypass LLC","acres":"235.04","parcel":"80967","county":"Lincoln","street":"St. James Church Road & NC 16 Bypass","broker":"NAI Southern Real Estate"},{"lat":"35.445398","long":"-81.13939399999998","market":[4],"title":"Lincoln County- Orchard Road LLC","acres":"339.27","parcel":"28284","county":"Orchard","street":"Orchard Road & Randleman Road","broker":"NAI Southern Real Estate"},{"lat":"35.509121","long":"-81.02592500000003","market":[4],"title":"St. James Church Road- NC 16 Bypass LLC","acres":"182.42","parcel":"32607","county":"Lincoln","street":"St. James Church Road & NC 16 Bypass","broker":"NAI Southern Real Estate"},{"lat":"35.4935386","long":"-81.02519889999996","market":[4],"title":"Kidville Road- NC 16 Bypass LLC","acres":"602","parcel":"53910","county":"Lincoln","street":"Kidville Road & NC 16 Bypass","broker":"Kidville Road & NC 16 Bypass"},{"lat":"35.262532","long":"-81.25912599999998","market":[4],"title":"I-85- Highway 29\/74 LLC","acres":"231.54","parcel":"205044","county":"Gaston","street":"I-85, US Highway 74 & Edgewood Road","broker":"NAI Southern Real Estate"},{"lat":"35.444627","long":"-80.39146549999998","market":[4],"title":"Highway 49- St. Stephens Church Road LLC","acres":"618.56","parcel":"5682816183","county":"Cabarrus","street":"Highway 49 & St. Stephens Church Road & Lentz Harness Shop Road","broker":"NAI Southern Real Estate"},{"lat":"35.25453","long":"-80.56344790000003","market":[4],"title":"Highway 24\/27 LLC","acres":"134.88","parcel":"5535316128","county":"Cabarrus","street":"Highway 24\/27","broker":"NAI Southern Real Estate"},{"lat":"35.189129","long":"-81.213641","market":[4],"title":"Highway 321- Forbes Road LLC","acres":"406.6","parcel":"146376","county":"Gaston","street":"Highway 321 & Forbes Road","broker":"NAI Southern Real Estate"},{"lat":"35.21323","long":"-81.213548","market":[4],"title":"Stagecoach Road LLC","acres":"120.35","parcel":"143088","county":"Gaston","street":"Stagecoach Road","broker":"NAI Southern Real Estate"},{"lat":"35.205487","long":"-81.21167100000002","market":[4],"title":"Highway 321- Stagecoach Road LLC","acres":"146.29","parcel":"143118","county":"Gaston","street":"Stagecoach Road & Highway 321","broker":"NAI Southern Real Estate"},{"lat":"35.387039","long":"-81.22593","market":[4],"title":"High Shoals- Highway 321 LLC","acres":"319.28","parcel":"164779","county":"Gaston","street":"Miles Road & High Shoals Road","broker":"NAI Southern Real Estate"},{"lat":"35.202784","long":"-81.03278799999998","market":[4],"title":"Belmont #3- US 321\/74 Bypass LLC","acres":"349.08","parcel":"201475","county":"Gaston","street":"Gaither Road","broker":"NAI Southern Real Estate"},{"lat":"35.2053765","long":"-81.05036539999998","market":[4],"title":"Belmont #2- US 321\/74 Bypass LLC","acres":"205.52","parcel":"201480","county":"Gaston","street":"","broker":"NAI Southern Real Estate"},{"lat":"35.216354","long":"-81.06362899999999","market":[4],"title":"Belmont #1- US 321\/74 Bypass LLC","acres":"462.4","parcel":"18844","county":"Gaston","street":"Armstrong Ford Road","broker":"NAI Southern Real Estate"},{"lat":"35.264063","long":"-80.549714","market":[4],"title":"Bethel Church Road LLC","acres":"168.97","parcel":"5535745537","county":"Cabarrus","street":"Bethel Church Rd","broker":"NAI Southern Real Estate"},{"lat":"35.247749","long":"-80.59513600000002","market":[4],"title":"Pioneer Mill Road LLC","acres":"92.54","parcel":"5524289123","county":"Cabarrus","street":"Pioneer Mill Road","broker":"NAI Southern Real Estate"},{"lat":"35.2519319","long":"-80.608026","market":[4],"title":"Lower Rocky River &#8211; Morrison LLC","acres":"481.26","parcel":"5514796250","county":"Cabarrus","street":"Morrison Road","broker":"NAI Southern Real Estate"},{"lat":"35.23309200000001","long":"-80.60564799999997","market":[4],"title":"Albemarle Road LLC","acres":"105.91","parcel":"5524054394","county":"Cabarrus","street":"Albemarle Road","broker":"NAI Southern Real Estate"},{"lat":"35.240806","long":"-80.60600399999998","market":[4],"title":"Albemarle Road &#8211; Howell Road LLC","acres":"122.34","parcel":"5524171342","county":"Cabarrus","street":"Howell Road","broker":"Howell Road"}]